{"4b545256f964a52079b727e3":{"name":"Mandy's Railway Diner","lat":49.3997682353,"lng":8.67799758911,"address":"Speyerer Str. 1","postalCode":"69115","city":"Heidelberg","state":"Baden-W\u00fcrttemberg","country":"Germany"},"4b545faff964a5200ab927e3":{"name":"Benjamin's American Diner","lat":49.5174443484,"lng":8.54277670383,"address":"Gorxheimer Str. 9","postalCode":"68309","city":"Mannheim","state":"Baden-W\u00fcrttemberg","country":"Germany"},"4c7d90546d79bfb7f94198b9":{"name":"MadMax","lat":49.0723154487,"lng":8.39305862858,"address":"Hauptstra\u00dfe 137","postalCode":"76344","city":"Eggenstein-Leopoldshafen","state":"Baden-Wuerttemberg","country":"Germany"},"4bc8a8ec14d79521538d69e9":{"name":"Star Diner","lat":51.476149,"lng":6.986775,"address":"Am Lichtbogen 12","postalCode":"45141","city":"Essen","state":"North Rhine-Westphalia","country":"Germany"},"4c07904142d4b713edaff445":{"name":"Miss Pepper","lat":48.3901570571,"lng":11.0636048292,"address":"Laimeringer Str. 2","postalCode":"86453","city":"Dasing","state":"Bavaria","country":"Germany"},"4b6aaf08f964a52000dc2be3":{"name":"American Diner Durlach","lat":48.9951199473,"lng":8.44986766577,"address":"Fiduciastr. 2","postalCode":"76227","city":"Karlsruhe","state":"Baden-W\u00fcrttemberg","country":"Germany"},"4b879c29f964a52050c431e3":{"name":"Sam Kullman's Diner","lat":49.4558513687,"lng":7.79658186263,"address":"Mainzer Str. 119","postalCode":"67657","city":"Kaiserslautern","state":"Rheinland-Pfalz","country":"Germany"},"4ebe4eb27ee54e4cd1fcd544":{"name":"Ladies Diner","lat":48.7235585679,"lng":9.3540711777,"address":"Alleenstr. 29","postalCode":"73730","city":"Esslingen","state":"Baden-W\u00fcrttemberg","country":"Germany"},"4adcda79f964a520b74621e3":{"name":"Tiki Heart","lat":52.4976320183,"lng":13.4308665991,"address":"Wiener Strasse 20","postalCode":"10999","city":"Berlin","state":"Berlin","country":"Germany"},"4e173fcbd22d512258776559":{"name":"Heroes Premium Burgers","lat":50.1235703918,"lng":8.69964838028,"address":"Leibnizstr. 13","postalCode":"60316","city":"Frankfurt","state":"Hesse","country":"Germany"},"4e05c31462e100e58164c7e1":{"name":"MEAT US","lat":50.1141932811,"lng":8.68381052505,"address":"Carl-Theodor-Reiffenstein-Platz 6","postalCode":"60313","city":"Frankfurt","state":"Hesse","country":"Germany"},"4b59ec36f964a5202ca128e3":{"name":"Chicago Meatpackers","lat":50.1082138919,"lng":8.67282866758,"address":"Untermainanlage 8","postalCode":"60329","city":"Frankfurt","state":"Hesse","country":"Germany"},"4ce95236d99f721ecf97b573":{"name":"Sam Kullman's Diner","lat":48.0192364333,"lng":7.843112,"address":"Engesserstr. 11","postalCode":"79108","city":"Freiburg","state":"Baden-W\u00fcrttemberg","country":"Germany"},"4afdcda8f964a520072b22e3":{"name":"The Sixties Diner","lat":52.523796,"lng":13.39956,"address":"Oranienburger Str. 11","postalCode":"10178","city":"Berlin","state":"Berlin","country":"Germany"},"4c5dbdb66147be9a6ef49209":{"name":"Sam Kullman's Diner","lat":48.8920529265,"lng":9.18361008167,"address":"Pflugfelder Str. 22","postalCode":"71636","city":"Ludwigsburg","state":"Baden-W\u00fcrttemberg","country":"Germany"},"4b0666e4f964a52086eb22e3":{"name":"Die Kuh die lacht","lat":50.1159707,"lng":8.679041,"address":"Schillerstr. 28","postalCode":"60313","city":"Frankfurt","state":"Hesse","country":"Germany"},"4c7791d35cd6b1f7465f3f94":{"name":"Louisiana","lat":51.4907533548,"lng":6.87532096559,"address":"Promenade 75","postalCode":"46047","city":"Oberhausen","state":"North Rhine-Westphalia","country":"Germany"},"4b5234baf964a520c36f27e3":{"name":"DINER American Restaurant","lat":52.0300193372,"lng":8.5318400165,"address":"Boulevard 4","postalCode":"33613","city":"Bielefeld","state":"North Rhine-Westphalia","country":"Germany"},"4b785a70f964a520c3c72ee3":{"name":"New Orleans","lat":52.0271333446,"lng":8.53267225686,"address":null,"postalCode":null,"city":null,"state":null,"country":"Germany"},"4d5ec14a29ef236a6a739059":{"name":"Joe's Diner","lat":48.7789267302,"lng":9.169849,"address":"Schlo\u00dfstra\u00dfe","postalCode":"70174","city":"Stuttgart","state":"Baden-W\u00fcrttemberg","country":"Germany"},"4b771002f964a52062792ee3":{"name":"Woody's","lat":48.7936005843,"lng":9.19188737869,"address":"Rosensteinstr. 22","postalCode":"70191","city":"Stuttgart","state":"Baden-W\u00fcrttemberg","country":"Germany"},"4db08b88cda14b702a339042":{"name":"Flamme Und Feuer","lat":49.5991754304,"lng":8.72785759229,"address":"Klein-Breitenbach 2","postalCode":"69509","city":"M\u00f6rlenbach","state":"Hesse","country":"Germany"},"4bd71af829eb9c747e3096e1":{"name":"Route 66","lat":48.6980006397,"lng":8.93914722527,"address":null,"postalCode":null,"city":"Sindelfingen","state":"Baden-W\u00fcrttemberg","country":"Germany"},"4e033d8418a819eb5966979c":{"name":"double six DINER","lat":47.9616662627,"lng":8.50888967514,"address":"Raiffeisenstr. 17","postalCode":"78166","city":"Donaueschingen","state":"Baden-W\u00fcrttemberg","country":"Germany"},"4b22db99f964a520e74e24e3":{"name":"M.C. Mueller","lat":48.1311637208,"lng":11.5713715553,"address":"Fraunhoferstr. 2","postalCode":"80469","city":"Munich","state":"Bavaria","country":"Germany"},"4bbb789e8a0d9521e264d930":{"name":"Chevy","lat":50.800576,"lng":8.77524,"address":null,"postalCode":null,"city":"Marburg","state":"Hesse","country":"Germany"},"4b46481cf964a5206a1c26e3":{"name":"Papa Joe's","lat":47.554488,"lng":7.58922256529,"address":"Barf\u00fcsserplatz","postalCode":"4051","city":"Basel","state":"Basel-City","country":"Switzerland"},"4b0ab3fff964a520a42623e3":{"name":"Doris Diner","lat":53.56912,"lng":9.983867,"address":"Grindelhof 43","postalCode":"20146","city":"Hamburg","state":"Hamburg","country":"Germany"},"4d8d12c6788c5481f2c718fd":{"name":"Planet Diner","lat":49.5276744363,"lng":8.56671469351,"address":"Robert-Schuman-Str. 8","postalCode":"68519","city":"Viernheim","state":"Hesse","country":"Germany"},"4bef137cac3cef3b95cef4f9":{"name":"Roadside Diner","lat":49.863355,"lng":8.580574,"address":"Wilhelm-Leuchner-Str. 162","postalCode":"64347","city":"Griesheim","state":"Hesse","country":"Germany"},"4c07dbdeda13c928441d6c02":{"name":"Planet Sports","lat":48.061995,"lng":8.530896,"address":"Bertha-von-Suttner-Stra\u00dfe 1","postalCode":"78054","city":"Villingen","state":"Baden-W\u00fcrttemberg","country":"Germany"},"4f5f86a0e4b0a7555b7ca08b":{"name":"Stars Sports Bar","lat":50.1251921488,"lng":8.94568803936,"address":null,"postalCode":null,"city":"Hanau","state":"Hesse","country":"Germany"},"4b4c6103f964a520dcb126e3":{"name":"Space Burger","lat":51.22635204,"lng":6.77611206301,"address":"Neustr. 41","postalCode":"40213","city":"D\u00fcsseldorf","state":"North Rhine-Westphalia","country":"Germany"},"4adcda88f964a520834921e3":{"name":"The Bird","lat":52.5465954479,"lng":13.405835424,"address":"Am Falkplatz 5","postalCode":"10437","city":"Berlin","state":"Berlin","country":"Germany"},"500710eae4b04742ecfb52c6":{"name":"Red Grill","lat":48.7222593276,"lng":9.16303252424,"address":null,"postalCode":null,"city":null,"state":null,"country":"Germany"},"4bf2815baf659c744ffcd747":{"name":"Cruise-In","lat":52.5326738537,"lng":13.1786423922,"address":"P\u00e4wesiner Weg 25a","postalCode":"13581","city":"Berlin","state":"Berlin","country":"Germany"},"4ddbf1ab922e7c4b28a5141b":{"name":"231 East St","lat":48.5831301331,"lng":7.75441646576,"address":"3 place Saint-\u00c9tienne","postalCode":"67000","city":"Strasbourg","state":"Alsace","country":"France"},"4f8954d0e4b0ddfd8219650a":{"name":"Franky's Diner","lat":48.5713810962,"lng":7.75646762762,"address":"2 avenue Jean Jaur\u00e8s","postalCode":"67000","city":"Strasbourg","state":"Alsace","country":"France"},"4ffdcbfde4b0bbe42ca5c7e5":{"name":"Chez Cat'sy","lat":48.580119685,"lng":7.74253685012,"address":"22, rue des Moulins","postalCode":"67000","city":"Strasbourg","state":"Alsace","country":"France"},"4da48506e7b8a09081442921":{"name":"Le Pied de Mammouth","lat":48.5904790349,"lng":7.74967432022,"address":"4 rue Sellenick","postalCode":"67000","city":"Strasbourg","state":"Alsace","country":"France"},"4c52999c7f6e20a17d7efbeb":{"name":"Hans im Gl\u00fcck","lat":48.1494954751,"lng":11.5467488766,"address":"Nymphenburger Str. 69","postalCode":"80335","city":"Munich","state":"Bavaria","country":"Germany"},"4f05f65f8b81bb1b031b9416":{"name":"Burger House","lat":48.1272324874,"lng":11.5930169009,"address":"Rablstr. 37","postalCode":"81667","city":"Munich","state":"Bavaria","country":"Germany"},"4ade123bf964a520d87221e3":{"name":"Burgermeister","lat":52.5010175136,"lng":13.4423538761,"address":"Oberbaumstr. 8","postalCode":"10997","city":"Berlin","state":"Berlin","country":"Germany"},"4b9bb4e7f964a520161c36e3":{"name":"Chong's Diner","lat":49.4556977474,"lng":11.084690094,"address":"Beckschlagergasse 6","postalCode":"90403","city":"Nuremberg","state":"Bavaria","country":"Germany"},"4c248b57c11dc9b667912524":{"name":"MOYOS - New Orleans Diner","lat":50.9373657051,"lng":6.93917695258,"address":"Hohenzollernring 21-23","postalCode":"50672","city":"Cologne","state":"North Rhine-Westphalia","country":"Germany"},"4ba6293ef964a520223839e3":{"name":"Connie's Diner","lat":51.56989913,"lng":7.674543,"address":"Schattweg 4","postalCode":"59174","city":"Kamen","state":"North Rhine-Westphalia","country":"Germany"},"4bcacad2937ca5934785a892":{"name":"Road Stop American Bar & Grill","lat":51.387937,"lng":6.943545,"address":"Meisenburgstr. 255","postalCode":"45133","city":"Essen","state":"-Westfalen","country":"Germany"},"4e029f47a809d5cf4525f443":{"name":"Burgerei","lat":54.3281618553,"lng":10.133600235,"address":"Wilhelminenstr. 11","postalCode":"24103","city":"Kiel","state":"Schleswig-Holstein","country":"Germany"},"4c652aedd02b20a14cb49c90":{"name":"Hunger & Durst","lat":54.3279366231,"lng":10.1340293884,"address":"Bergstr. 17","postalCode":"24103","city":"Kiel","state":"Schleswig-Holstein","country":"Germany"},"4ba11fb7f964a520179a37e3":{"name":"Cindy's Diner","lat":53.6319372585,"lng":10.0055175599,"address":"Flughafenstr. 1-3","postalCode":"22335","city":"Hamburg","state":"Hamburg","country":"Germany"},"4b632ee9f964a520d0682ae3":{"name":"Mel's Diner","lat":52.3144034271,"lng":9.79273245965,"address":"Hildesheimer Str. 83","postalCode":"30880","city":"Laatzen","state":"Lower Saxony","country":"Germany"},"4e104a5452b1655efa3ba9c2":{"name":"Mamalicious","lat":53.563684,"lng":9.959734,"address":"Max-Brauer-Allee 277","postalCode":"22769","city":"Hamburg","state":"Hamburg","country":"Germany"},"4bb5b96def159c741a0075f7":{"name":"Old MacDonald","lat":53.5791525314,"lng":9.94890373371,"address":"Stellinger Weg 33","postalCode":"20255","city":"Hamburg","state":"Hamburg","country":"Germany"},"4adcda78f964a5203b4621e3":{"name":"White Trash Fast Food","lat":52.5296131734,"lng":13.4103947107,"address":"Sch\u00f6nhauser Allee 6\/7","postalCode":"10119","city":"Berlin","state":null,"country":"Germany"},"4adcda87f964a520324921e3":{"name":"Jimmy's Diner","lat":52.497961007,"lng":13.3189301164,"address":"Pariser Stra\u00dfe 41","postalCode":"10707","city":"Berlin","state":"Berlin","country":"Germany"},"4f1ad991e4b0d9f8b8ae5b04":{"name":"Dirty South","lat":52.5105142422,"lng":13.4580051899,"address":"Krossener Str. 18","postalCode":"10245","city":"Berlin","state":"Berlin","country":"Germany"},"50ad1c4de4b0f32f45c02525":{"name":"Fr\u00e4ulein Burger","lat":52.5275666123,"lng":13.3980953693,"address":"Koppenplatz 1","postalCode":"10115","city":"Berlin","state":"Berlin","country":"Germany"},"4cc1ec88806246885004262f":{"name":"Little Texas","lat":48.8869017363,"lng":8.70349466801,"address":null,"postalCode":null,"city":null,"state":null,"country":"Germany"},"4c92065251d9b1f7471c8546":{"name":"Burgerium","lat":52.508339,"lng":13.452026,"address":"Revaler Str. 8","postalCode":"10245","city":"Berlin","state":"Berlin","country":"Germany"},"50d62460e4b05cc5d8b70f88":{"name":"Burgerb\u00fcro","lat":52.3916393355,"lng":13.0947321288,"address":"Rudolf-Breitscheid-Str. 47\/48","postalCode":"14482","city":"Potsdam","state":"Brandenburg","country":"Germany"},"506d73ece4b0a3f3b2edcb96":{"name":"Schiller Burger","lat":52.4926498691,"lng":13.4214704234,"address":"Sch\u00f6nleinstr. 34","postalCode":"10967","city":"Berlin","state":"Berlin","country":"Germany"},"4c3df96cb8b4be9a3f7ccbef":{"name":"Berlin Burger International","lat":52.4865356824,"lng":13.430586338,"address":"Pannierstr. 5","postalCode":"12047","city":"Berlin","state":"Berlin","country":"Germany"},"4af0c299f964a520ebde21e3":{"name":"Frittiersalon","lat":52.5125686504,"lng":13.4588758901,"address":"Boxhagener Str. 104","postalCode":"10245","city":"Berlin","state":"Berlin","country":"Germany"},"4adf611cf964a520107a21e3":{"name":"Room 77","lat":52.4931259198,"lng":13.4178092328,"address":"Graefestr. 77","postalCode":"10967","city":"Berlin","state":"Berlin","country":"Germany"},"4b34c466f964a520782825e3":{"name":"Louisiana Kid","lat":52.5285672143,"lng":13.4094084664,"address":"Alte Sch\u00f6nhauser Str. 2","postalCode":"10119","city":"Berlin","state":"Berlin","country":"Germany"},"4adf5841f964a520a77921e3":{"name":"Burgers Berlin","lat":52.504706,"lng":13.467538,"address":"Sonntagstr. 2","postalCode":"10245","city":"Berlin","state":"Berlin","country":"Germany"},"4c794e35794e224b0cf56428":{"name":"Lara\u2019s Diner \u2013 American Restaurant","lat":50.7248376728,"lng":12.7784816124,"address":"Neue Schichtstr. 16","postalCode":"09366","city":"Niederdorf","state":"Saxony","country":"Germany"},"4bb08d53f964a5208b4b3ce3":{"name":"Sam Kullman's Diner","lat":52.1597832265,"lng":12.780790329,"address":"Westfalenstr. 2","postalCode":"14822","city":"Linthe","state":"Brandenburg","country":"Germany"},"4be5b4dd2468c9283e690043":{"name":"Don's Diner","lat":51.702605,"lng":9.956632,"address":null,"postalCode":null,"city":"Northeim","state":"Lower Saxony","country":"Germany"},"4bab95d1f964a52064b63ae3":{"name":"Udo Snack","lat":48.7762282801,"lng":9.17411774397,"address":"Calwerstr. 23","postalCode":"70173","city":"Stuttgart","state":"Baden-W\u00fcrttemberg","country":"Germany"},"4df497cafa76abc3d870c875":{"name":"Chrome - American Diner","lat":54.2174257995,"lng":10.8976128069,"address":"Dieselstra\u00dfe 2","postalCode":"23738","city":"Lensahn","state":"Schleswig-Holstein","country":"Germany"},"4b8a94f5f964a520737332e3":{"name":"Sam Kullman's Diner","lat":49.010023,"lng":12.093326,"address":"Friedenstra\u00dfe 10","postalCode":"93053","city":"Regensburg","state":"Bavaria","country":"Germany"},"4cfcd87afeec6dcb3b914e36":{"name":"Miss Pepper","lat":53.5774211342,"lng":10.1916255443,"address":"Hanskampring 1","postalCode":"22885","city":"Barsb\u00fcttel","state":"Schleswig-Holstein","country":"Germany"},"4c0e27557189c92839f8d7b6":{"name":"Miss Pepper","lat":51.6831225661,"lng":8.72103271835,"address":"Borchener Strasse 336","postalCode":"33106","city":"Paderborn","state":"North Rhine-Westphal","country":"Germany"},"4e0fa0c5b61c3fe4780f9a39":{"name":"Miss PeppeR","lat":52.94519044,"lng":9.88079821,"address":"Am Hanfberg 1","postalCode":"29649","city":"Wietzendorf","state":"NDS","country":"Germany"},"4f05d0ea99116f05b5f461c6":{"name":"Big Apple Diner","lat":49.4913992438,"lng":8.37563753128,"address":"Schillerstr. 7","postalCode":"67071","city":"Ludwigshafen am Rhein","state":"Rheinland-Pfalz","country":"Germany"},"4b9ba76af964a5200b1736e3":{"name":"Johnny Rockets","lat":49.446181,"lng":7.587066,"address":null,"postalCode":"66877","city":"Ramstein Air Base","state":"Rheinland-Pfalz","country":"Germany"},"4c7f70531009a0935b56474e":{"name":"J. R. Rockers Sports Cafe","lat":49.4461041577,"lng":7.60661931758,"address":null,"postalCode":null,"city":null,"state":null,"country":"Germany"},"4d9602bb2bd6f04d40162c50":{"name":"Wittkoop B\u00f8rger H\u00f8kers","lat":49.482979912,"lng":8.47228288651,"address":"M7, 11","postalCode":"68161","city":"Mannheim","state":"Baden-W\u00fcrttemberg","country":"Germany"},"4b8a2c2ff964a520bf6232e3":{"name":"Woodpeckers Roadhouse","lat":51.5671738052,"lng":6.87422275543,"address":"Zur Grafenm\u00fchle 144-147","postalCode":"46244","city":"Bottrop","state":"North Rhine-Westphalia","country":"Germany"},"50a231cce4b06a7d1227f015":{"name":"Chicago Meatpackers","lat":53.5924156594,"lng":9.98650789261,"address":"Martinistr. 11","postalCode":"20251","city":"Hamburg","state":"Hamburg","country":"Germany"},"4ba64f52f964a520d94439e3":{"name":"StarChief Diner","lat":51.5406746548,"lng":7.1146861537,"address":"Grimbergstr. 14","postalCode":"45889","city":"Gelsenkirchen","state":"North Rhine-Westphalia","country":"Germany"},"4b9ffbf6f964a520d84f37e3":{"name":"Road Stop","lat":51.3027464797,"lng":7.21487732878,"address":"Einern 149","postalCode":"42279","city":"Wuppertal","state":"North Rhine-Westphalia","country":"Germany"},"4bd20162b221c9b620b5d6d0":{"name":"RoadStop American Bar & Grill","lat":51.4253267297,"lng":7.48419463634,"address":"Hohensyburgstr. 169","postalCode":"44265","city":"Dortmund","state":"North Rhine-Westphalia","country":"Germany"},"4b4e4018f964a520d2e626e3":{"name":"Louisiana","lat":51.2261520932,"lng":6.77336222504,"address":"Bolkerstr. 18","postalCode":"40213","city":"D\u00fcsseldorf","state":"North Rhine-Westphalia","country":"Germany"},"4cfa7d9fc6cca35d28988632":{"name":"Chicago '33","lat":51.5092966943,"lng":7.01119244099,"address":"He\u00dflerstr. 23","postalCode":"45329","city":"Essen","state":"North Rhine-Westphalia","country":"Germany"},"4c49c94ba3ace21e6272153c":{"name":"Three Sixty","lat":51.4914100181,"lng":6.87746822834,"address":"Promenade 35","postalCode":"46047","city":"Oberhausen","state":"North Rhine-Westphalia","country":"Germany"},"4b77ce04f964a52004ab2ee3":{"name":"Louisiana Hamburg Volksdorf","lat":53.6488057709,"lng":10.1670633366,"address":"Im Alten Dorfe 36","postalCode":"22359","city":"Hamburg","state":"Hamburg","country":"Germany"},"4f06def8e4b0e624d5679109":{"name":"Burger Lounge","lat":53.5532931312,"lng":9.95432611851,"address":"Holstenstr. 22","postalCode":null,"city":"Hamburg","state":"Hamburg","country":"Germany"},"4b5f1ceef964a520c3a629e3":{"name":"Montgomery Champs","lat":53.6475545168,"lng":9.908025,"address":"Holsteiner Chaussee 402","postalCode":"22457","city":"Hamburg","state":"Hamburg","country":"Germany"},"4b599311f964a5202b8d28e3":{"name":"Hollywood Canteen","lat":53.579795,"lng":9.963769,"address":"G\u00e4rtnerstr. 94","postalCode":"20253","city":"Hamburg","state":"Hamburg","country":"Germany"},"4e071e06b3ad23ff53ff9c8c":{"name":"TriBeCa","lat":53.5809265198,"lng":10.0204324722,"address":"Bachstr 145","postalCode":"22083","city":"Hamburg","state":"Hamburg","country":"Germany"},"4b75ca37f964a520da242ee3":{"name":"Henry's Griddle","lat":52.3718735919,"lng":9.74040806363,"address":"Georgstr. 50","postalCode":"30159","city":"Hanover","state":"Lower Saxony","country":"Germany"},"50603c93e4b008dd84e9fd73":{"name":"Little Apple","lat":49.4835723792,"lng":8.44488143921,"address":"Bismarckstr. 77","postalCode":"67059","city":"Ludwigshafen am Rhein","state":"Rheinland-Pfalz","country":"Germany"},"4c0a9ceca1b32d7f54a399f0":{"name":"Jaroon's American Diner","lat":49.0005988368,"lng":8.38490415977,"address":"Brauerstr. 40","postalCode":"76137","city":"Karlsruhe","state":"Baden-W\u00fcrttemberg","country":"Germany"},"4bf4433f94af2d7f92633a72":{"name":"John's American Restaurant & Bar","lat":49.3266145795,"lng":11.0627938134,"address":null,"postalCode":null,"city":"Schwabach","state":"Bavaria","country":"Germany"},"4c16106982a3c9b63da7fff8":{"name":"Auguste","lat":49.441134,"lng":11.094768,"address":"Augustenstr. 37","postalCode":"90461","city":"Nuremberg","state":"Bavaria","country":"Germany"},"4fedab39e4b0f9f20f396059":{"name":"Rocket Diner","lat":49.4489051746,"lng":11.0047638133,"address":"Virnsberger Str. 71","postalCode":"90431","city":"Nuremberg","state":"Bavaria","country":"Germany"},"4bd0311f462cb71362ded707":{"name":"Play Off","lat":51.0487328013,"lng":13.7354207039,"address":"Webergasse 1","postalCode":"01067","city":"Dresden","state":"Saxony","country":"Germany"},"4b92b7bef964a520c61434e3":{"name":"Devils Kitchen","lat":51.066454,"lng":13.75118,"address":"Alaunstr. 39","postalCode":"01099","city":"Dresden","state":"Saxony","country":"Germany"},"4cb5e7da64998cfab56711a2":{"name":"Pinapple","lat":51.082483588,"lng":13.6957395311,"address":"Lommatzscher Str. 82","postalCode":"01139","city":"Dresden","state":"Saxony","country":"Germany"},"4bdd4e324ffaa5930e326ff7":{"name":"Burgermeister","lat":51.066076,"lng":13.755212,"address":"Louisenstr. 54","postalCode":"01099","city":"Dresden","state":"Saxony","country":"Germany"},"4c3b6e0916cb2d7f54dc02a9":{"name":"Frankie's Diner","lat":49.488277,"lng":9.773984,"address":"W\u00fcrzburger Str. 14","postalCode":null,"city":"Bad Mergentheim","state":"Baden-W\u00fcrttemberg","country":"Germany"},"500273c6e4b0eb34b54decdf":{"name":"Tennessee Mountain","lat":51.9743753475,"lng":7.60579799611,"address":"Steinfurter Stra\u00dfe","postalCode":null,"city":"M\u00fcnster","state":"North Rhine-Westphalia","country":"Germany"},"4bba21c7935e952167c62790":{"name":"Road Stop","lat":51.9883292913,"lng":7.662961,"address":"Schiffahrter Damm 315","postalCode":"48155","city":"M\u00fcnster","state":"North Rhine-Westphalia","country":"Germany"},"4b08631bf964a520ae0a23e3":{"name":"Route 66 Diner","lat":52.49777,"lng":13.320119,"address":"Pariser Str. 44","postalCode":"10707","city":"Berlin","state":"Berlin","country":"Germany"},"4b560b15f964a52069fd27e3":{"name":"Kantine No. 2","lat":51.0664816633,"lng":13.7540030479,"address":"G\u00f6rlitzer Str. 2","postalCode":"01099","city":"Dresden","state":"Saxony","country":"Germany"},"506357cec84c667f81118b0a":{"name":"Nalu Diner","lat":52.542902867,"lng":13.4208297729,"address":"Dunckerstr. 80a","postalCode":"10437","city":"Berlin","state":"Berlin","country":"Germany"},"4b5ef7f6f964a5205da029e3":{"name":"Andy's Diner & Bar","lat":52.5197789658,"lng":13.4032022953,"address":"Karl-Liebknecht-Str. 5","postalCode":"10178","city":"Berlin","state":"Berlin","country":"Germany"},"4c5edd6a7f661b8dd1224f1c":{"name":"The Sixties Diner","lat":52.437782,"lng":13.26245,"address":"Clayallee 328","postalCode":"14108","city":"Berlin","state":"Berlin","country":"Germany"},"4b7d8c47f964a520eac52fe3":{"name":"Tony Roma's","lat":52.5076737137,"lng":13.3729362488,"address":"Marlene-Dietrich-Platz 3","postalCode":"10785","city":"Berlin","state":"Berlin","country":"Germany"},"4b252ffff964a520a36d24e3":{"name":"Burger Dream","lat":52.540292819,"lng":13.4151649475,"address":"Danziger Str. 16","postalCode":"10435","city":"Berlin","state":"Berlin","country":"Germany"},"4d4d67f680cb6dcbff9e0f01":{"name":"American Western Saloon","lat":52.5974994784,"lng":13.3524783093,"address":null,"postalCode":null,"city":null,"state":null,"country":"Germany"},"4e984e484fc674719a340dfa":{"name":"Burgerladen","lat":50.0006329315,"lng":8.27230811119,"address":"Quintinsstr. 7","postalCode":"55116","city":"Mainz","state":"Rheinland-Pfalz","country":"Germany"},"4f19dfcce4b0d1a6540984e8":{"name":"Burger Baby","lat":50.123779973,"lng":8.70087119895,"address":"H\u00f6henstr. 24","postalCode":null,"city":"Frankfurt","state":"Hesse","country":"Germany"},"4cc1810567a3b1f739c6c80e":{"name":"Freddy Schilling","lat":50.92871,"lng":6.938213,"address":"Kyffh\u00e4userstr. 34","postalCode":"50674","city":"Cologne","state":"North Rhine-Westphalia","country":"Germany"},"4d96251361a3a1cd40cf9442":{"name":"Burgermeister","lat":50.1056578254,"lng":8.69216888014,"address":"Dreieichstr. 20","postalCode":"60594","city":"Frankfurt","state":null,"country":"Germany"},"4e9c0accd22d8be589ae393f":{"name":"Die fette Kuh","lat":50.9181151323,"lng":6.96069516242,"address":"Bonner Str. 43","postalCode":"50677","city":"Cologne","state":"North Rhine-Westphalia","country":"Germany"},"4fb685c8e4b037516ff08d30":{"name":"Road House Downtown","lat":51.7182798337,"lng":8.75502736254,"address":"Markt 9","postalCode":"33098","city":"Paderborn","state":"North Rhine-Westphalia","country":"Germany"},"4d49a923b480a143ccb026ec":{"name":"Burgermeisterei","lat":50.6430405378,"lng":7.217516,"address":"Rheinpromenade 4","postalCode":"53604","city":"Bad Honnef","state":"North Rhine-Westphalia","country":"Germany"},"4c545cff1b46c9b6a42b78ce":{"name":"Texas","lat":50.9718464616,"lng":11.0271264365,"address":null,"postalCode":null,"city":null,"state":null,"country":"Germany"},"4efddc03c5126f14b59a571b":{"name":"The Rocket","lat":50.9772256039,"lng":11.0327117964,"address":"Pilse 7","postalCode":"99084","city":"Erfurt","state":"Free Thuringia","country":"Germany"},"4b757151f964a520c20c2ee3":{"name":"Cheers","lat":50.9295079461,"lng":11.58332456,"address":"Johannisplatz 9","postalCode":"07743","city":"Jena","state":"Free Thuringia","country":"Germany"},"4f62f888e4b06561235c8cfc":{"name":"Mister Meyers and Co. Diner","lat":50.7180094431,"lng":12.4905109406,"address":"Humboldtstr.12","postalCode":"08056","city":"Zwickau","state":"Saxony","country":"Germany"},"4b6dfe9df964a520e8a12ce3":{"name":"Jimmy's Diner","lat":51.7586232737,"lng":14.3322658539,"address":"Am Turm 14","postalCode":null,"city":"Cottbus","state":"Brandenburg","country":"Germany"},"4c2287337e85c928332cbc21":{"name":"Highway 96","lat":54.4086683174,"lng":13.5994337809,"address":null,"postalCode":null,"city":null,"state":null,"country":"Germany"},"4cd6e365dfb4a1cdbe67615c":{"name":"FBI Diner & Sportsbar","lat":48.4791561516,"lng":8.94912366239,"address":"Schuhstra\u00dfe 72","postalCode":"72108","city":"Rottenburg","state":"Baden-W\u00fcrttemberg","country":"Germany"},"4c5c939eed29ef3bfa178776":{"name":"Filou American Diner","lat":48.6762553453,"lng":8.88206005096,"address":"Forchenweg 38","postalCode":"71134","city":"Aidlingen","state":"Baden-W\u00fcrttemberg","country":"Germany"},"4d88f3d96daeb60c356b45e0":{"name":"Bone's Real American Restaurant","lat":54.789244,"lng":9.432373,"address":"Nordermarkt 1","postalCode":"24937","city":"Flensburg","state":"Schleswig-Holstein","country":"Germany"},"502941c3e4b0844f90327d2a":{"name":"Rolis Fun Bar And Grill","lat":49.2675137783,"lng":11.9213574912,"address":null,"postalCode":null,"city":null,"state":null,"country":"Germany"},"4be1550ad816c9288cbbefd9":{"name":"Twisters","lat":54.9082051681,"lng":8.30452985714,"address":"Paulstra\u00dfe 6","postalCode":"25980","city":"Westerland","state":"Schleswig-Holstein","country":"Germany"},"4f16c6ace4b0ac73742709d9":{"name":"Ruben Carla","lat":52.5263264257,"lng":13.3888578415,"address":"Linienstr. 136","postalCode":"10115","city":"Berlin","state":"Berlin","country":"Germany"},"4dda38468877f115102b09c5":{"name":"50's Diner","lat":48.5161067559,"lng":9.75948353275,"address":"Nellinger Stra\u00dfe 24","postalCode":"89188","city":"Merklingen","state":"Baden-W\u00fcrttemberg","country":"Germany"},"510a53a0e4b0de3a282ed417":{"name":"Ruff's Burger","lat":48.1617631031,"lng":11.5893316269,"address":"Occamstr. 4","postalCode":"80802","city":"Munich","state":"Bavaria","country":"Germany"},"4dd2b10cc65b9d071fa2443e":{"name":"Burgerie","lat":52.542526,"lng":13.412291,"address":"Sch\u00f6nhauser Allee 50","postalCode":"10437","city":"Berlin","state":"Berlin","country":"Germany"},"4af2c6f1f964a52075e821e3":{"name":"marienBurger","lat":52.535267,"lng":13.423027,"address":"Marienburger Str. 47","postalCode":"10405","city":"Berlin","state":"Berlin","country":"Germany"},"4b128292f964a520658a23e3":{"name":"Kreuzburger","lat":52.5120478312,"lng":13.4556228844,"address":"Gr\u00fcnberger Str. 52","postalCode":"10245","city":"Berlin","state":"Berlin","country":"Germany"},"4adcda87f964a520484921e3":{"name":"Kreuzburger","lat":52.500378918,"lng":13.4222245216,"address":"Oranienstra\u00dfe 190","postalCode":"10999","city":"Berlin","state":"Berlin","country":"Germany"},"4cae0c81bf70236a5e2905f9":{"name":"Rosenburger","lat":52.530071,"lng":13.401033,"address":"Brunnenstr. 196","postalCode":"10119","city":"Berlin","state":"Berlin","country":"Germany"},"4ade2cedf964a5209e7321e3":{"name":"Kreuzburger","lat":52.543967,"lng":13.41558671,"address":"Pappelallee 19","postalCode":"10437","city":"Berlin","state":"Berlin","country":"Germany"},"5079934ee4b0e1f138282af7":{"name":"Burger de Ville - Berlin \/ Charlies Beach","lat":52.5083227726,"lng":13.390403729,"address":"Sch\u00fctzenstr. 2-3","postalCode":"10117","city":"Berlin","state":"Berlin","country":"Germany"},"4e45938daeb70e74f488989a":{"name":"Zsa Zsa Burger","lat":52.4979265579,"lng":13.3483014776,"address":"Motzstr. 28","postalCode":"10777","city":"Berlin","state":"Berlin","country":"Germany"},"4e21e5c6b61cdcf1ecc2c153":{"name":"WindBURGER","lat":52.506084,"lng":13.299226,"address":"Windscheidstr. 26","postalCode":"10627","city":"Berlin","state":"Berlin","country":"Germany"},"508ac81ce4b0a533e0726246":{"name":"Burgerwehr","lat":52.5162899367,"lng":13.4653590507,"address":"Rigaer Str. 75","postalCode":"10247","city":"Berlin","state":"Berlin","country":"Germany"},"4c08059e7e3fc9280da9ef82":{"name":"Hamburger Heaven","lat":52.4952624273,"lng":13.4194824427,"address":"Graefestr. 93","postalCode":"10967","city":"Berlin","state":"Berlin","country":"Germany"},"4b626c6bf964a52015472ae3":{"name":"Road House","lat":51.6831614994,"lng":8.7221248552,"address":"Borchener Str. 320","postalCode":null,"city":"Paderborn","state":"North Rhine-Westphalia","country":"Germany"},"4bb0ed10f964a520d86a3ce3":{"name":"Freeway Restaurant & Bar","lat":49.9722808975,"lng":8.44194173813,"address":"Lise-Meitner-Str. 6","postalCode":"65428","city":"R\u00fcsselsheim","state":"Hesse","country":"Germany"},"4e0f329de4cd27fc7d36e302":{"name":"American Diner","lat":49.1274017696,"lng":8.58610933655,"address":null,"postalCode":null,"city":null,"state":null,"country":"Germany"},"518b8580498e33a20a7145af":{"name":"Rembrandt Burger","lat":52.5199426645,"lng":13.4477440816,"address":"Richard-Sorge-Str. 21","postalCode":"10249","city":"Berlin","state":"Berlin","country":"Germany"},"4cb9b5e3c7228cfa67a611ce":{"name":"Little Money","lat":54.0869647867,"lng":12.1100291264,"address":"Ulmenstra\u00dfe 37","postalCode":"18057","city":"Rostock","state":"Mecklenburg-West Pommerania","country":"Germany"},"4bcd92b6b6c49c7498819591":{"name":"Potatomans Diner","lat":50.7671210667,"lng":6.14611603333,"address":"Neuenhofstr. 129","postalCode":"52078","city":"Aachen","state":"North Rhine-Westphalia","country":"Germany"},"4cb8903b4c60a093e2153aca":{"name":"Stargarder Burger","lat":52.547035,"lng":13.4166602,"address":"Stargarder Stra\u00dfe 75","postalCode":"10437","city":"Berlin","state":"Berlin","country":"Germany"},"51c4bcce498ee246aa85397b":{"name":"Rebel Room","lat":52.5507477707,"lng":13.352181085,"address":"Seestr. 93","postalCode":"13347","city":"Berlin","state":"Berlin","country":"Germany"},"50366e5ee4b0cf4240da4f41":{"name":"Waikiki Burger","lat":52.4009193093,"lng":13.0537744437,"address":"Dortustr. 62","postalCode":"14467","city":"Potsdam","state":"Brandenburg","country":"Germany"},"4e342b9fc65bdb4c7a0546c9":{"name":"Western Saloon Woodfire","lat":49.3869160305,"lng":8.57469499111,"address":"Heidelberger Strasse 14","postalCode":"68723","city":"Schwetzingen","state":"Baden-W\u00fcrttemberg","country":"Germany"},"4dc2e7b145ddd5b5b6b7b8b4":{"name":"Hapa Haole","lat":51.4542471284,"lng":7.30297568304,"address":"Dreerholz 18","postalCode":null,"city":"Witten","state":"North Rhine-Westphalia","country":"Germany"},"52349a1b11d2d8b38406546b":{"name":"Walzwerk Caf\u00e9 Restaurant Bar","lat":49.3838518728,"lng":8.57254759685,"address":null,"postalCode":null,"city":null,"state":null,"country":"Germany"},"51d1afdf498e6282311ef230":{"name":"Burger House","lat":48.1363048615,"lng":11.5978556871,"address":"Ismaninger Str. 5","postalCode":"81675","city":"Munich","state":"Bavaria","country":"Germany"},"514ca62ee4b066f6cb2e1447":{"name":"belicious","lat":48.1279473876,"lng":11.5993297157,"address":"Pariser Str. 34","postalCode":"81667","city":"Munich","state":"Bavaria","country":"Germany"},"4f79faa5e4b0041e702f00ef":{"name":"Schiller Burger","lat":52.4772335436,"lng":13.4235697723,"address":"Herrfurthstr. 7","postalCode":"12049","city":"Berlin","state":"Berlin","country":"Germany"},"4afddf6ff964a520a42b22e3":{"name":"Burgeramt \/ Fr\u00fchst\u00fccksklub","lat":52.5103330415,"lng":13.4593114257,"address":"Krossener Str. 22","postalCode":"10245","city":"Berlin","state":"Berlin","country":"Germany"},"51a9da4f498ec8aca72360f1":{"name":"Shiso Burger","lat":52.5273292336,"lng":13.3987701302,"address":"Auguststr. 29c","postalCode":"10119","city":"Berlin","state":"Berlin","country":"Germany"},"4db2f44cfa8c350240c1514d":{"name":"Hans im Gl\u00fcck","lat":50.9389313536,"lng":6.93974397514,"address":"Hohenzollernring 38 - 40","postalCode":"50672","city":"Cologne","state":"North Rhine-Westphalia","country":"Germany"},"4bca0278fb84c9b60e261c3e":{"name":"Beef Brothers","lat":50.9364546775,"lng":6.93721809037,"address":"Aachener Str. 12","postalCode":"50674","city":"Cologne","state":"North Rhine-Westphalia","country":"Germany"},"4b328481f964a520a20d25e3":{"name":"Frittebud","lat":50.7363464944,"lng":7.09394931793,"address":"Franzstr. 43","postalCode":"53111","city":"Bonn","state":"North Rhine-Westphalia","country":"Germany"},"50a3c21be4b0984b71cc8717":{"name":"Chicago Williams BBQ","lat":52.527142,"lng":13.385805,"address":"Hannoversche Str. 2","postalCode":"10115","city":"Berlin","state":"Berlin","country":"Germany"},"4d8a0b88bd4cd7ce36bf8b77":{"name":"The Bird","lat":53.5479748249,"lng":9.956707,"address":"Trommelstr. 4","postalCode":"20359","city":"Hamburg","state":"Hamburg","country":"Germany"},"4e13087431517911dffd90d6":{"name":"Hasir Burger","lat":52.5006271046,"lng":13.4186410904,"address":"Adalbertstr. 93","postalCode":"10999","city":"Berlin","state":"Berlin","country":"Germany"},"509cf8b3e4b005ecff5c304f":{"name":"Der BurgerMeister","lat":50.940653,"lng":6.941489,"address":"Friesenstr. 72-74","postalCode":"50670","city":"Cologne","state":"North Rhine-Westphalia","country":"Germany"},"4b7b1032f964a5203b4f2fe3":{"name":"Yours Sports Bar","lat":50.0824254447,"lng":8.2434797287,"address":"Wilhelmstr. 36","postalCode":"65183","city":"Wiesbaden","state":"Hesse","country":"Germany"},"51d2c34c498e1573c827cbbd":{"name":"Hans im Gl\u00fcck Burger Grill","lat":54.401108,"lng":13.614997,"address":"Strandpromenade 23","postalCode":"18609","city":null,"state":"Mecklenburg-West Pomerania","country":"Germany"},"4b0b07aef964a520dd2b23e3":{"name":"PowwoW","lat":52.4929489988,"lng":13.4144675732,"address":"Dieffenbachstr. 11","postalCode":"10967","city":"Berlin","state":null,"country":"Germany"},"51f413f1498e3ba36cf8e168":{"name":"Die Superbude","lat":49.464912,"lng":11.087679,"address":"L\u00f6bleinstr. 50","postalCode":"90409","city":"Nuremberg","state":"Bavaria","country":"Germany"},"511a773272da0e98040ed5ad":{"name":"What's Beef","lat":51.2237484748,"lng":6.78839743137,"address":"Immermannstr. 24","postalCode":"40215","city":"D\u00fcsseldorf","state":"North Rhine-Westphalia","country":"Germany"},"522b4852498ede28e2bb5a47":{"name":"Beef Brothers","lat":51.2265304243,"lng":6.77556053496,"address":"Hunsr\u00fcckenstr. 19","postalCode":"40213","city":"D\u00fcsseldorf","state":"North Rhine-Westphalia","country":"Germany"},"4b71bb1df964a52009592de3":{"name":"Spaceburger","lat":51.239935,"lng":6.778312,"address":"Pfalzstr. 15","postalCode":"40477","city":"D\u00fcsseldorf","state":"North Rhine-Westphalia","country":"Germany"},"51e90d01498e64318b2878d3":{"name":"STIER ROYAL","lat":51.2091528673,"lng":6.78230800856,"address":"Zimmerstr. 28","postalCode":"40215","city":"D\u00fcsseldorf","state":"North Rhine-Westphalia","country":"Germany"},"516d7e84e4b00d7a6798e2f2":{"name":"Richie'n Rose \u2013 Burger No.1","lat":51.2125998672,"lng":6.76640331745,"address":"Konkordiastr. 89","postalCode":"40219","city":"D\u00fcsseldorf","state":"North Rhine-Westphalia","country":"Germany"},"4ade0cfcf964a520266a21e3":{"name":"Cosmogrill","lat":48.1387855218,"lng":11.579822,"address":"Maximilianstr. 10","postalCode":"80539","city":"Munich","state":"Bavaria","country":"Germany"},"517ffcc1e4b0586176defa25":{"name":"Hamburgerei","lat":48.1469924974,"lng":11.5611238712,"address":"Brienner Str. 49","postalCode":"80333","city":"Munich","state":"Bavaria","country":"Germany"},"5228508511d2662678afb58c":{"name":"Holy Burger","lat":48.1316668293,"lng":11.5986532103,"address":"W\u00f6rthstr. 7","postalCode":"81667","city":"Munich","state":"Bavaria","country":"Germany"},"5233955ebce6e720025210d3":{"name":"Brooklyn Burger Bar","lat":53.5486810285,"lng":9.99644011259,"address":"Alter Fischmarkt 3","postalCode":"20457","city":"Hamburg","state":"Hamburg","country":"Germany"},"53491b15498e25975c66a827":{"name":"The Bird","lat":52.494083022,"lng":13.4216485998,"address":"Kottbusser Damm 95","postalCode":"10967","city":"Berlin","state":"Berlin","country":"Germany"},"4fa3eab7e4b0fc2af9e1a2c6":{"name":"Joe Molese","lat":49.4125786861,"lng":8.70961546898,"address":"Steingasse 16a","postalCode":"69117","city":"Heidelberg","state":"Baden-W\u00fcrttemberg","country":"Germany"},"4b7c3c52f964a52044862fe3":{"name":"Daisy's Diner","lat":53.053551,"lng":9.030683,"address":"An der Autobahn 2","postalCode":"28876","city":"Oyten","state":"Lower Saxony","country":"Germany"},"5314bf54498e242a08d6566b":{"name":"Dulf's Burger","lat":53.5964889526,"lng":9.99775314331,"address":"Himmelstrasse 45","postalCode":"22299","city":"Hamburg","state":"Hamburg","country":"Germany"},"4b02bf41f964a520a04922e3":{"name":"Burger & Bier","lat":48.1304472417,"lng":11.5740255371,"address":"Klenzestr. 40","postalCode":"80469","city":"Munich","state":"Bavaria","country":"Germany"},"532f059f498e253034774402":{"name":"Hexenkessel","lat":51.513298,"lng":7.482143,"address":null,"postalCode":null,"city":null,"state":null,"country":"Germany"},"5180262f498e1a242170f6b0":{"name":"Hapa Haole","lat":51.4393117721,"lng":6.8730477273,"address":"Sandstr. 158","postalCode":"45473","city":"M\u00fclheim","state":"North Rhine-Westphalia","country":"Germany"},"53b830c1498eeed934b430ca":{"name":"Burgerhouse","lat":48.1704473886,"lng":11.5647749177,"address":"Schlei\u00dfheimer Stra\u00dfe 234","postalCode":null,"city":"Munich","state":"Bavaria","country":"Germany"},"51b4aac8498edc9cb8521d9d":{"name":"Smoketribe BBQ","lat":50.1022051574,"lng":8.27632682086,"address":"Nassaustr. 6","postalCode":"65719","city":"Wiesbaden","state":"Hesse","country":"Germany"},"536e4641498ef500d395f84f":{"name":"Butch Becker Burgers & Friends","lat":51.2253936135,"lng":6.78465904078,"address":"Klosterstr. 24","postalCode":"40211","city":"D\u00fcsseldorf","state":"North Rhine-Westphalia","country":"Germany"},"52aedb8e11d2fb9a318658f0":{"name":"Better Burger Company","lat":53.552521446,"lng":10.0007987022,"address":"Gertrudenstr. 2","postalCode":"20095","city":"Hamburg","state":"Hamburg","country":"Germany"}}